{
  "courseId": 0,
  "courseName": "합천 테마파크 코스",
  "courseRoute": "합천 영상테마파크 - 청와대 세트장 - 해인사",
  "courseTime": 6,
  "location": "경상도",
  "tag": ["합천", "영상테마파크", "청와대세트장"],
  "viewCount": 0,
  "likeCount": 0,
  "guideName": "김동현",
  "guideText": "여행지의 설레는 마음을 어떤 곳이든 느낄 수 있도록!",
  "travelSpots": [
    {
      "id": 1,
      "name": "1. 합천 영상테마파크",
      "position": { "lat": 35.549194, "lng": 128.073115 }
    },
    {
      "id": 2,
      "name": "2. 청와대 세트장",
      "position": { "lat": 35.554692, "lng": 128.073992 }
    },
    {
      "id": 3,
      "name": "3. 해인사",
      "position": { "lat": 35.801147, "lng": 128.098071 }
    }
  ],
  "sleeps": [
    {
      "id": 1,
      "name": "합천 휴테마파크",
      "position": { "lat": 35.549287, "lng": 128.057183 }
    },
    {
      "id": 2,
      "name": "아리펜션",
      "position": { "lat": 35.578809, "lng": 128.061608 }
    },
    {
      "id": 3,
      "name": "빌라트 합천",
      "position": { "lat": 35.530971, "lng": 128.037877 }
    }
  ],
  "eats": [
    {
      "eatId": 1,
      "name": "백운장식당",
      "position": { "lat": 35.790471, "lng": 128.087719 }
    },
    {
      "eatId": 2,
      "name": "모토라드(바이크 카페)",
      "position": { "lat": 35.544514, "lng": 128.053651 }
    },
    {
      "eatId": 3,
      "name": "합천 사누키우동",
      "position": { "lat": 35.54881, "lng": 128.07094 }
    }
  ],

  "pathCoordinates": [
    {
      "id": 1,
      "route1": [35.549194, 128.605576],
      "route2": [35.554692, 128.073992]
    },
    {
      "id": 2,
      "route1": [35.554692, 128.073992],
      "route2": [35.801147, 128.098071]
    }
  ],

  "courseData": [
    {
      "courseDataId": 1,
      "title": "합천 영상테마파크",
      "text": "골목마다 독특한 분위기와 볼거리가 가득한 이곳은 1920년대에서 1980년대를 배경으로 하는 드라마, 영화, 뮤직비디오 등 190여 편의 촬영장이 되었다. 전차, 마차 등을 이용해 둘러 볼 수도 있고 보이는 곳마다 사진 찍기도 좋다."
    },
    {
      "courseDataId": 2,
      "title": "청와대 세트장",
      "text": "청와대 세트장은 1992년 발간된 청와대 건설지의 내용과 사진을 발췌하여, 실물과 최대한 유사한 형태로 건립하였다. 실제 면적의 68%로 축소 건축하였으며 청와대를 배경으로 한 각종 드라마와 영화 촬영, 회의실, 체험 전시시설로 활용하고 있다. 청와대 세트장은 합천영상테마파크와 이웃해 있어, 관람객들에게 다양한 볼거리를 제공하는 시설 중 하나이다. 합천영상테마파크에서부터 청와대 세트장까지 연결된 모노레일을 타고 이동할 수 있다. 중간중간 멧돼지 동물 조형물이 눈에 띄어 아이들과 함께 둘러보기에도 좋다. 영화와 드라마를 즐기는 이들에게는 색다른 경험을 선사해 줄 것이다."
    },
    {
      "courseDataId": 3,
      "title": "합천 해인사",
      "text": "우리나라 3대 사찰의 하나로 신라 애장왕 3년(802)에 순응, 이정 두 스님이 창건하였으며, 화엄경의 해인삼매에서 연유되어 법보종찰로도 유명하다. 고려 태조는 이 절에 머물렀던 희랑이 후백제 견훤을 뿌리치고 도와준 것에 대한 보답으로, 이 절을 고려의 국찰로 삼고 전지 500결을 하사했다. 해인사는 법보종찰이요, 화엄십찰의 하나이다. 최치원의 가야산 해인사선안주원벽기에 의하면 해인사는 순응, 이정 스님에 의하여 신라 애장왕 3년(802)에 창건되었는데, 그때 왕의 조대비 성목태후가 대시주였다고 한다. ''해인''이란 화엄경의 ''해인삼매''에서 유래된 것으로 해인사는 화엄사상을 천명하고자 이루어진 도장이다. 해인사를 우리나라 삼보사찰의 하나인 법보사찰이라 부르는 것은 해인사 대장경판전에 고려대장경판인 법보가 보관되어 있기 때문이다. 해인사에는 대장경판전, 대적광전, 명부전, 독성각, 응진전, 응향각, 퇴설당, 해행당, 심검당, 궁현당, 경학원, 적묵당, 관음전, 구광루, 보경당, 대장경보전연구소, 명월당. 사운당, 청화당, 범종각, 우화당, 해탈문, 천왕문, 일주문 등 많은 전당이 있다. 부속암자로서는 원당암을 비롯하여 홍제암, 용탑선원, 백련암, 지족암, 희랑대, 삼선암, 금선암, 약수암, 국일암, 보현암, 금강굴, 길상암, 고운암, 간월암, 청량사 등이 있다. * 템플스테이 * 템플스테이는 자연환경과 불교문화가 어우러진 사찰에서 수행자의 일상을 체험하며 마음의 휴식과 전통문화를 체험하는 일이다. 일상에 지친 현대인들을 위한 전통사찰의 예절과 수행법을 통한 프로그램으로 구성되어 개인이나 단체 등 누구나 참석할 수 있으며, 참된 ''나''를 찾아가는 프로그램으로 마음의 평온과 활력을 찾을 수 있을 것이다."
    }
  ]
}
