{
  "courseId": 0,
  "courseName": "철책 트레킹",
  "courseRoute": "화석정 - 임진각 - 자유의 다리 - 독개다리 - 지하벙커",
  "courseTime": 8,
  "location": "경기도",
  "tag": [
    "봄",
    "여름", 
    "가을"
  ],
  "viewCount": 0,
  "likeCount": 0,
  "guideName": "최진우",
  "guideText": "여행은 즐거워야 하는 법!",
  "travelSpots": [
    {
      "id": 1,
      "name": "1. 화석정",
      "lat": "37.8879",
      "lng": "126.8053"
    },
    {
      "id": 2,
      "name": "2. 의주길 제5코스",
      "lat": "37.8889",
      "lng": "126.7901"
    },
    {
      "id": 3,
      "name": "3. 임진각",
      "lat": "37.8921532",
      "lng": "126.7427746"
    },
    {
      "id": 4,
      "name": "4. 자유의 다리",
      "lat": "37.89",
      "lng": "126.7388"
    },
    {
      "id": 5,
      "name": "5. 독개다리 스카이워크",
      "lat": "37.8905",
      "lng": "126.7379"
    }
  ],
  "sleeps": [
    {
      "id": 1,
      "name": "소풍호텔",
      "lat": "37.7852",
      "lng": "126.6816"
    },
    {
      "id": 2,
      "name": "웨스트힐 호텔",
      "lat": "37.7834",
      "lng": "126.6847"
    },
    {
      "id": 3,
      "name": "골든힐 호텔",
      "lat": "37.777",
      "lng": "126.6878"
    }
  ],
  "eats": [
    {
      "eatId": 1,
      "name": "강경 불고기",
      "lat": "37.8706",
      "lng": "126.7877"
    },
    {
      "eatId": 2,
      "name": "진설렁탕",
      "lat": "37.8729",
      "lng": "126.7795"
    },
    {
      "eatId": 3,
      "name": "반구정 나루터집",
      "lat": "37.8685",
      "lng": "126.7518"
    }
  ],
  "courseDatas": [
    {
      "courseDataId": 1,
      "title": "화석정",
      "text": "왜구의 침공에 대비해 10만 양병설을 주장한 이이의 상소를 받아들이지 않은 선조가 임진왜란 때 의주로 피난 가던 중 한밤중에 강을 건널 때 이 정자를 태워 불을 밝혔다는 이야기로도 유명하다. 그 후 80여 년간 빈터만 남아 있다가 1673년(현종 14)에 이이의 증손이 복원했다가 1950년 6·25전쟁 때 다시 소실되었다가 1699년 다시 복원되었다."
    },
    {
      "courseDataId": 2,
      "title": "자유로 철조망",
      "text": "자유로를 달리다 보면 기다란 철조망이 눈에 들어온다…. 여기에서 많은 생각이 드는데.. 처음 가이드 공부할 때(17년 전이긴하지만^^) 철조망 건너편이 북한인 줄 알았었다는…. 김포시라고 하는 순간..아, 내가 대한민국에 대하여 너무나 몰랐다는 거에 첫째 충격이었고 둘째 안보개념에 대해서도 무지했다는 것을 알 수가 있었다…그 후 나와 대한민국의 가이드들은 외국인들에게 우리가 왜 분단이 되었으며 여기는 어디 우리는 누구!! 열변을 토하며 지금까지도 대한민국의 안보와 북한과 남한에서 일어나는 역사적 순간들을 알리려고 오늘도 필드에서 최선을 다하고 있다. 이런 역사적인 현장을 우리는 보여주고자 들려주고자 노력에 노력을 거듭하고 있다…걷다 보면 철조망이 매우 근접하게 보인다. 건너편이 북한이란 나라인가?"
    },
    {
      "courseDataId": 3,
      "title": "걷기 무념무상",
      "text": "걷기는 우리 몸에 매우 좋은 효과를 가져다준다.화석정에서 - 임진각까지 약 6.67키로 정도 걷게 됩니다.선조 임금이 걷던 피난길과 겹치는데, 걸으면서 선조 임금에 대해서 가이드 스토리도 들을만 하다!!"
    },
    {
      "courseDataId": 4,
      "title": "임진각",
      "text": "군사 분계선에서 7km 남쪽에 있다. 평화의 종을 치며 통일을 염원하는 스팟도 있고, 최근에는 철조망 부근에 카페가 생겨 그 카페에서 임진강 건너를 바라보며 커피를 마시는 것도 경험해 볼만하다., 점점 엑티비티를 즐기는 여행자층들이 많아짐으로써, 셔틀로만 갔던 민통선을 곤돌라를 타고 이용하며 색다른 체험을 할 수 있게 되어있다., 매년 임진각에서는 다양한 행사를 하고 있으며, 행사 때 가면 사람들로 북적이어 경험 많은 가이드가 인솔을 해드리니 시간 낭비 없이 즐길 수 있다."
    },
    {
      "courseDataId": 5,
      "title": "자유의 다리",
      "text": "이곳은 임진각 망배단 주변_자유의 다리 곳곳에서 볼수있는 광경으로서 눈에 띄는 구절구절이 모두 평화를 기원하는 하나의 소망으로 가득하다~! 17년 전 이곳을 방문했을 때는 눈물이 나와서..,생각을 많게 하는 다리..라고 나름 칭하기도 했다~ 얼마나 수많은 인들이 여기를 거쳐가면서 소망을 기원했을까..,망배단에는 북한 이주민들이 가끔 제사도 지낸다..외국인들은 항상 묻습니다? 왜 통일이 이렇게 어렵냐고…그 당시, 가이드 개인적인 의견은 서로 각자 자기의 이득을 따지는게 원인이 아닐까 생각했습니다~자유의 다리에서 분단 스토리를 들어보는 시간을 갖자."
    },
    {
      "courseDataId": 6,
      "title": "독개다리 스카이 워크",
      "text": "독개다리는 전쟁때 무참히 파괴된 상태를 유리밑으로 그대로 보여준다...이 철교는 원래 문산읍 마정리와 임진강 건너 북쪽의 장단면 노상리를 잇는 다리이며 다리건너에 자연 부락인 독개마을이 있었기 때문에 독개다리라는 이름이 붙여 졌다고 한다."
    },
    {
      "courseDataId": 7,
      "title": "지하벙커 BEAT131",
      "text": "지하벙커에 들어가면 짧은 전쟁 영상과 전쟁 당시 사용 햇던 물품들을 실제로 볼 수 있게 되어있다.당시에 있던 진짜 벙커에 들어가서 체험하는 재미도 꽤나 느낄 수 있는 장소이다."
    }
  ]
}