{
  "courseId": 0,
  "courseName": "DMZ 투어",
  "courseRoute": "임진각 공원 - 제3땅굴 - 도라산 역 - 도라 전망대",
  "courseTime": 6,
  "location": "경기도",
  "tag": [
    "봄",
    "여름", 
    "가을", 
    "겨울"
  ],
  "viewCount": 0,
  "likeCount": 0,
  "guideName": "최진우",
  "guideText": "여행은 즐거워야 하는 법!",
  "travelSpots": [
    {
      "id": 1,
      "name": "1. 임진각 공원",
      "lat": "37.8921532",
      "lng": "126.7427746"
    },
    {
      "id": 2,
      "name": "2. DMZ 영상관 및 전시관 & 제3땅굴",
      "lat": "37.9167",
      "lng": "126.6984"
    },
    {
      "id": 3,
      "name": "3. 도라산 역",
      "lat": "37.8988",
      "lng": "126.7099"
    },
    {
      "id": 4,
      "name": "4. 도라 전망대",
      "lat": "37.9092",
      "lng": "126.7049"
    }
  ],
  "sleeps": [
    {
      "id": 1,
      "name": "오블라디 풀빌라",
      "lat": "37.8468",
      "lng": "126.771"
    },
    {
      "id": 2,
      "name": "메이트 호텔 파주",
      "lat": "37.8091",
      "lng": "126.7588"
    },
    {
      "id": 3,
      "name": "DMZ Stay",
      "lat": "37.8861",
      "lng": "126.7597"
    }
  ],
  "eats": [
    {
      "eatId": 1,
      "name": "장단콩 마을",
      "lat": "37.9092",
      "lng": "126.7049"
    },
    {
      "eatId": 2,
      "name": "프로방스 베이커리",
      "lat": "37.9092",
      "lng": "126.7049"
    },
    {
      "eatId": 3,
      "name": "버섯나라",
      "lat": "37.8807",
      "lng": "126.7547"
    }
  ],
  "courseDatas": [
    {
      "courseDataId": 1,
      "title": "임진각 공원",
      "text": "임진각은 한국인들에게 6.25전쟁의 비통한 한이 서려 있는 곳이다.북향 실향민을 위한 망배단, 한국전쟁의 대표 유산인 자유의 다리, 평화의 종 등이 있는한국의 대표적인 통일안보 관광지다.특히 이곳의 망배단은 설, 추석 명절이면 고향을 그리워하는 실향민들이 차례를 지내는곳으로 유명하다.정전 후 한국군의 포로 12,773명이 북한에서 귀환 할 때 사용된 ‘자유의 다리’ 끝에는 남북통일을 염원하는 평화의 리본이 수십만개가 달려있어 장관을 연출하고 있다."
    },
    {
      "courseDataId": 2,
      "title": "DMZ 영상관 및 전시관 & 제3땅굴",
      "text": "DMZ 영상관 및 전시관: 민간인출입통제선 안에 있는 독특한 박물관이다. 국•도비 445억 원이 투입돼 2009년 8월 14일 공식 개관한 곳이다. DMZ전시관에는 6•25전쟁 당시 사용된 ‘삐라(전단)’를 비롯해 군사편지, 총검, 탄피, DMZ에서 발견된 토기, 조류 박제 등이 전시돼 있다. DMZ영상관에서는 분단의 역사를 알기쉽게 담아 놓은 입체영상물을 상영하고 있다.제3터널: 1978년에 발견된 제3땅굴에서 서울까지는 52㎞이며 땅굴의 규모는 폭 2m 높이 2m에 총 길이는 1635m. 북한은 제3땅굴이 발견될 당시 남측이 북침용으로 뚫은 것이라고 주장했다. 땅굴 내부를 살펴보면 굴을 뚫을 때 폭파흔적(장전공)이 남쪽을 향해 있고' 갱도로 위장하기 위해 석탄가루를 묻히는 등 북한 주장이 사실과 다르다는 증거를 발견할 수 있다."
    },
    {
      "courseDataId": 3,
      "title": "도라산 역",
      "text": "도라산역은 남쪽의 마지막 역이 아닌 북으로 가는 첫 번째 역이다.통일이 된다면 유라시아대륙을 잇는 횡단열차의 기점이자 종착역이기도 하다. 현재는 운행을 하지 않고 있는 상태다.2002년도에 한국의 김대중 대통령과 미국의 부시대통령이 방문하여 세계적인 관심을 모았으며, 외신기자들에게도 참신한 관광지로 부각되기 시작했다."
    },
    {
      "courseDataId": 4,
      "title": "도라 전망대",
      "text": "도라전망대는 DMZ 남측의 경계선, 즉 남한의 최북단으로 북한을 가장 잘 조망할 수 있는 곳이다. 이곳에서는 육안으로 군사 분계선에 쳐진 철조망을 볼 수 있으며, 날씨가 좋은 날에는 북쪽의 개성공단과 북한민들의 주거마을까지 확인할 수 있다.가까워 보이지만 정작 갈 수 없는 먼 곳 북한을 바라보며 한국이 분단국가라는 사실을 다시 깨닫게 해주는 곳이다."
    }
  ]
}